{"ast":null,"code":"export var locations = {\n  antwerp: {\n    results: [{\n      geometry: {\n        location: {\n          lng: 4.402464,\n          lat: 51.219448\n        },\n        viewport: {\n          northeast: {\n            lat: 51.2145994302915,\n            lng: 4.418074130291502\n          },\n          southwest: {\n            lat: 51.2119014697085,\n            lng: 4.415376169708497\n          }\n        }\n      }\n    }]\n  },\n  \"san francisco\": {\n    results: [{\n      geometry: {\n        location: {\n          lat: 37.7749295,\n          lng: -122.4194155\n        },\n        viewport: {\n          northeast: {\n            lat: 37.812,\n            lng: -122.3482\n          },\n          southwest: {\n            lat: 37.70339999999999,\n            lng: -122.527\n          }\n        }\n      }\n    }],\n    status: \"OK\"\n  },\n  chicago: {\n    results: [{\n      geometry: {\n        location: {\n          lng: -87.629799,\n          lat: 41.878113\n        },\n        viewport: {\n          northeast: {\n            lat: 41.88758823029149,\n            lng: -87.6194830697085\n          },\n          southwest: {\n            lat: 41.88489026970849,\n            lng: -87.6221810302915\n          }\n        }\n      }\n    }]\n  },\n  toronto: {\n    results: [{\n      geometry: {\n        location: {\n          lng: -79.383186,\n          lat: 43.653225\n        },\n        viewport: {\n          northeast: {\n            lat: 43.64794098029149,\n            lng: -79.37325551970848\n          },\n          southwest: {\n            lat: 43.6452430197085,\n            lng: -79.37595348029149\n          }\n        }\n      }\n    }]\n  }\n};","map":{"version":3,"sources":["/home/amaimon/work/udemy_courses/react_native_ztm/mealsToGo/src/services/location/locations.mock.js"],"names":["locations","antwerp","results","geometry","location","lng","lat","viewport","northeast","southwest","status","chicago","toronto"],"mappings":"AAAA,OAAO,IAAMA,SAAS,GAAG;AACvBC,EAAAA,OAAO,EAAE;AACPC,IAAAA,OAAO,EAAE,CACP;AACEC,MAAAA,QAAQ,EAAE;AACRC,QAAAA,QAAQ,EAAE;AACRC,UAAAA,GAAG,EAAE,QADG;AAERC,UAAAA,GAAG,EAAE;AAFG,SADF;AAKRC,QAAAA,QAAQ,EAAE;AACRC,UAAAA,SAAS,EAAE;AACTF,YAAAA,GAAG,EAAE,gBADI;AAETD,YAAAA,GAAG,EAAE;AAFI,WADH;AAKRI,UAAAA,SAAS,EAAE;AACTH,YAAAA,GAAG,EAAE,gBADI;AAETD,YAAAA,GAAG,EAAE;AAFI;AALH;AALF;AADZ,KADO;AADF,GADc;AAuBvB,mBAAiB;AACfH,IAAAA,OAAO,EAAE,CACP;AACEC,MAAAA,QAAQ,EAAE;AACRC,QAAAA,QAAQ,EAAE;AAAEE,UAAAA,GAAG,EAAE,UAAP;AAAmBD,UAAAA,GAAG,EAAE,CAAC;AAAzB,SADF;AAERE,QAAAA,QAAQ,EAAE;AACRC,UAAAA,SAAS,EAAE;AAAEF,YAAAA,GAAG,EAAE,MAAP;AAAeD,YAAAA,GAAG,EAAE,CAAC;AAArB,WADH;AAERI,UAAAA,SAAS,EAAE;AAAEH,YAAAA,GAAG,EAAE,iBAAP;AAA0BD,YAAAA,GAAG,EAAE,CAAC;AAAhC;AAFH;AAFF;AADZ,KADO,CADM;AAYfK,IAAAA,MAAM,EAAE;AAZO,GAvBM;AAqCvBC,EAAAA,OAAO,EAAE;AACPT,IAAAA,OAAO,EAAE,CACP;AACEC,MAAAA,QAAQ,EAAE;AACRC,QAAAA,QAAQ,EAAE;AACRC,UAAAA,GAAG,EAAE,CAAC,SADE;AAERC,UAAAA,GAAG,EAAE;AAFG,SADF;AAKRC,QAAAA,QAAQ,EAAE;AACRC,UAAAA,SAAS,EAAE;AACTF,YAAAA,GAAG,EAAE,iBADI;AAETD,YAAAA,GAAG,EAAE,CAAC;AAFG,WADH;AAKRI,UAAAA,SAAS,EAAE;AACTH,YAAAA,GAAG,EAAE,iBADI;AAETD,YAAAA,GAAG,EAAE,CAAC;AAFG;AALH;AALF;AADZ,KADO;AADF,GArCc;AA2DvBO,EAAAA,OAAO,EAAE;AACPV,IAAAA,OAAO,EAAE,CACP;AACEC,MAAAA,QAAQ,EAAE;AACRC,QAAAA,QAAQ,EAAE;AACRC,UAAAA,GAAG,EAAE,CAAC,SADE;AAERC,UAAAA,GAAG,EAAE;AAFG,SADF;AAKRC,QAAAA,QAAQ,EAAE;AACRC,UAAAA,SAAS,EAAE;AACTF,YAAAA,GAAG,EAAE,iBADI;AAETD,YAAAA,GAAG,EAAE,CAAC;AAFG,WADH;AAKRI,UAAAA,SAAS,EAAE;AACTH,YAAAA,GAAG,EAAE,gBADI;AAETD,YAAAA,GAAG,EAAE,CAAC;AAFG;AALH;AALF;AADZ,KADO;AADF;AA3Dc,CAAlB","sourcesContent":["export const locations = {\n  antwerp: {\n    results: [\n      {\n        geometry: {\n          location: {\n            lng: 4.402464,\n            lat: 51.219448,\n          },\n          viewport: {\n            northeast: {\n              lat: 51.2145994302915,\n              lng: 4.418074130291502,\n            },\n            southwest: {\n              lat: 51.2119014697085,\n              lng: 4.415376169708497,\n            },\n          },\n        },\n      },\n    ],\n  },\n  \"san francisco\": {\n    results: [\n      {\n        geometry: {\n          location: { lat: 37.7749295, lng: -122.4194155 },\n          viewport: {\n            northeast: { lat: 37.812, lng: -122.3482 },\n            southwest: { lat: 37.70339999999999, lng: -122.527 },\n          },\n        },\n      },\n    ],\n    status: \"OK\",\n  },\n  chicago: {\n    results: [\n      {\n        geometry: {\n          location: {\n            lng: -87.629799,\n            lat: 41.878113,\n          },\n          viewport: {\n            northeast: {\n              lat: 41.88758823029149,\n              lng: -87.6194830697085,\n            },\n            southwest: {\n              lat: 41.88489026970849,\n              lng: -87.6221810302915,\n            },\n          },\n        },\n      },\n    ],\n  },\n  toronto: {\n    results: [\n      {\n        geometry: {\n          location: {\n            lng: -79.383186,\n            lat: 43.653225,\n          },\n          viewport: {\n            northeast: {\n              lat: 43.64794098029149,\n              lng: -79.37325551970848,\n            },\n            southwest: {\n              lat: 43.6452430197085,\n              lng: -79.37595348029149,\n            },\n          },\n        },\n      },\n    ],\n  },\n};\n"]},"metadata":{},"sourceType":"module"}